
[ {
    "id": "1",
    "name": "Iju Tax Station",
    "lat": 6.6428895,
    "lng": 3.3234608,
    "address": "College Road, Estate Bus Stop Lagos",
    "address2": "",
    "city": "Iju",
    "state": "Lagos",
    "postal": "",
    "phone": "",
    "web": "",
    "hours1": "Mon-Sun 8am-5pm",
    "hours2": "",
    "hours3": ""
},{
    "id": "2",
    "name": "Ikorodu Tax Station",
    "lat": 6.6245701,
    "lng": 3.4931695,
    "address": "91, Lagos Road, Haruna Bus Stop Lagos, Lagos",
    "address2": "",
    "city": "Ikorodu",
    "state": "Lagos",
    "postal": "",
    "phone": "",
    "web": "",
    "hours1": "Mon-Sun 8am-5pm",
    "hours2": "",
    "hours3": ""
},{
    "id": "3",
    "name": "Ogba Tax Office",
    "lat": 6.63905,
    "lng": 3.356681,
    "address": "6/8 Isheri Road Omole, Ogba Lagos, Lagos",
    "address2": "",
    "city": "Ogba",
    "state": "Lagos",
    "postal": "",
    "phone": "",
    "web": "",
    "hours1": "Mon-Sun 8am-5pm",
    "hours2": "",
    "hours3": ""
},{
    "id": "4",
    "name": "Aguda Tax Office",
    "lat": 6.4996427,
    "lng": 3.3364869,
    "address": "13, Olubunmi Alonge Street Lagos, Lagos",
    "address2": "",
    "city": "Aguda",
    "state": "Lagos",
    "postal": "",
    "phone": "",
    "web": "",
    "hours1": "Mon-Sun 8am-5pm",
    "hours2": "",
    "hours3": ""
},{
    "id": "5",
    "name": "Sogunle Tax Office",
    "lat": 6.5829306,
    "lng": 3.3403158,
    "address": "Works Yard, PWD, Ikeja Lagos, Lagos",
    "address2": "",
    "city": "Sogunle",
    "state": "Lagos",
    "postal": "",
    "phone": "",
    "web": "",
    "hours1": "Mon-Sun 8am-5pm",
    "hours2": "",
    "hours3": ""
},{
    "id": "6",
    "name": "Ketu/Ojota Tax Office",
    "lat": 6.606277899999999,
    "lng": 3.3924087,
    "address": "582 Ikorodu Road Lagos, Lagos",
    "address2": "",
    "city": "Ketu/Ojota",
    "state": "Lagos",
    "postal": "",
    "phone": "",
    "web": "",
    "hours1": "Mon-Sun 8am-5pm",
    "hours2": "",
    "hours3": ""
},{
    "id": "7",
    "name": "Alausa Tax Station",
    "lat": 6.6038524,
    "lng": 3.3507797,
    "address": "82, Allen Avenue Ikeja Lagos, Lagos",
    "address2": "",
    "city": "Allen",
    "state": "Lagos",
    "postal": "",
    "phone": "",
    "web": "",
    "hours1": "Mon-Sun 8am-5pm",
    "hours2": "",
    "hours3": ""
},{
    "id": "8",
    "name": "Oshodi Tax Station",
    "lat": 6.5638049,
    "lng": 3.3483105,
    "address": "Wema Bank Plc, Oshodi Branch 435 Agege Motor Road Lagos, Lagos Nigeria",
    "address2": "",
    "city": "Oshodi",
    "state": "Lagos",
    "postal": "",
    "phone": "",
    "web": "",
    "hours1": "Mon-Sun 8am-5pm",
    "hours2": "",
    "hours3": ""
},{
    "id": "9",
    "name": "Head Office",
    "lat": 6.61684,
    "lng": 3.36133,
    "address": "The Good Shepherd House, Block H, Plot H1, Central Business District, Opposite Lagos Secretariat Alausa, Lagos 00001 Nigeria",
    "address2": "",
    "city": "Alausa",
    "state": "Lagos",
    "postal": "",
    "phone": "",
    "web": "",
    "hours1": "Mon-Sun 8am-5pm",
    "hours2": "",
    "hours3": ""
}]